[{
        "SITEID": "BOO674",
        "sitename": "LWILIANGPMJH",
        "dur": "6:44:46",
        "ALARM_TEXT": "Troubleshooting",
        "LONGITUDE": 106.65947,
        "LATITUDE": -6.61969,
        "SITECLASS": "GOLD",
        "prime_status": "NO",
        "bcp": "NO",
        "mbp_access": "YES"
    },
    {
        "SITEID": "BOO674",
        "sitename": "LWILIANGPMJH",
        "dur": "6:46:17",
        "ALARM_TEXT": "Troubleshooting",
        "LONGITUDE": 106.65947,
        "LATITUDE": -6.61969,
        "SITECLASS": "GOLD",
        "prime_status": "NO",
        "bcp": "NO",
        "mbp_access": "YES"
    },
    {
        "SITEID": "BOO379",
        "sitename": "CIBUNIANCIPATATDMT",
        "dur": "6:44:48",
        "ALARM_TEXT": "Troubleshooting",
        "LONGITUDE": 106.63601,
        "LATITUDE": -6.69108,
        "SITECLASS": "BRONZE",
        "prime_status": "NO",
        "bcp": "NO",
        "mbp_access": "YES"
    },
    {
        "SITEID": "BOO379",
        "sitename": "CIBUNIANCIPATATDMT",
        "dur": "6:46:15",
        "ALARM_TEXT": "Troubleshooting",
        "LONGITUDE": 106.63601,
        "LATITUDE": -6.69108,
        "SITECLASS": "BRONZE",
        "prime_status": "NO",
        "bcp": "NO",
        "mbp_access": "YES"
    },
    {
        "SITEID": "SRG124",
        "sitename": "CIRUAS4",
        "dur": "34:42:8",
        "ALARM_TEXT": "Transmisi:MetroE",
        "LONGITUDE": 106.21597,
        "LATITUDE": -6.13743,
        "SITECLASS": "SILVER",
        "prime_status": "NO",
        "bcp": "NO",
        "mbp_access": "YES"
    },
    {
        "SITEID": "SRG124",
        "sitename": "CIRUAS4",
        "dur": "34:43:39",
        "ALARM_TEXT": "Transmisi:MetroE",
        "LONGITUDE": 106.21597,
        "LATITUDE": -6.13743,
        "SITECLASS": "SILVER",
        "prime_status": "NO",
        "bcp": "NO",
        "mbp_access": "YES"
    },
    {
        "SITEID": "SRG124",
        "sitename": "CIRUAS4",
        "dur": "34:44:46",
        "ALARM_TEXT": "Transmisi:MetroE",
        "LONGITUDE": 106.21597,
        "LATITUDE": -6.13743,
        "SITECLASS": "SILVER",
        "prime_status": "NO",
        "bcp": "NO",
        "mbp_access": "YES"
    },
    {
        "SITEID": "TSK091",
        "sitename": "PASIRBATANG",
        "dur": "3:38:39",
        "ALARM_TEXT": "Transmisi:MetroE",
        "LONGITUDE": 108.3486,
        "LATITUDE": -7.3599,
        "SITECLASS": "SILVER",
        "prime_status": "NO",
        "bcp": "NO",
        "mbp_access": "YES"
    },
    {
        "SITEID": "TSK091",
        "sitename": "PASIRBATANG",
        "dur": "3:37:56",
        "ALARM_TEXT": "Transmisi:MetroE",
        "LONGITUDE": 108.3486,
        "LATITUDE": -7.3599,
        "SITECLASS": "SILVER",
        "prime_status": "NO",
        "bcp": "NO",
        "mbp_access": "YES"
    },
    {
        "SITEID": "TSK091",
        "sitename": "PASIRBATANG",
        "dur": "3:40:2",
        "ALARM_TEXT": "Transmisi:MetroE",
        "LONGITUDE": 108.3486,
        "LATITUDE": -7.3599,
        "SITECLASS": "SILVER",
        "prime_status": "NO",
        "bcp": "NO",
        "mbp_access": "YES"
    },
    {
        "SITEID": "COC006",
        "sitename": "CMBTGNLUHURCITOREK",
        "dur": "35:25:44",
        "ALARM_TEXT": "Transmisi:MetroE",
        "LONGITUDE": 106.333,
        "LATITUDE": -6.74194,
        "SITECLASS": "BRONZE",
        "prime_status": "NO",
        "bcp": "NO",
        "mbp_access": "YES"
    },
    {
        "SITEID": "RKB202",
        "sitename": "CITOREK",
        "dur": "35:25:45",
        "ALARM_TEXT": "Transmisi:MetroE",
        "LONGITUDE": 106.338,
        "LATITUDE": -6.7051,
        "SITECLASS": "BRONZE",
        "prime_status": "NO",
        "bcp": "NO",
        "mbp_access": "YES"
    },
    {
        "SITEID": "RKB669",
        "sitename": "CIROMPANGSOBANGDMT",
        "dur": "35:25:38",
        "ALARM_TEXT": "Transmisi:MetroE",
        "LONGITUDE": 106.366416,
        "LATITUDE": -6.658376,
        "SITECLASS": "BRONZE",
        "prime_status": "NO",
        "bcp": "NO",
        "mbp_access": "YES"
    },
    {
        "SITEID": "RKB669",
        "sitename": "CIROMPANGSOBANGDMT",
        "dur": "35:26:55",
        "ALARM_TEXT": "Transmisi:MetroE",
        "LONGITUDE": 106.366416,
        "LATITUDE": -6.658376,
        "SITECLASS": "BRONZE",
        "prime_status": "NO",
        "bcp": "NO",
        "mbp_access": "YES"
    },
    {
        "SITEID": "JKB537",
        "sitename": "TANAHSEREAL2STP",
        "dur": "5:35:28",
        "ALARM_TEXT": "Transmisi:LeasedLine",
        "LONGITUDE": 106.81078,
        "LATITUDE": -6.15766,
        "SITECLASS": "GOLD",
        "prime_status": "NO",
        "bcp": "NO",
        "mbp_access": "YES"
    },
    {
        "SITEID": "BDG571",
        "sitename": "PANGHEOTAN",
        "dur": "1:1:34",
        "ALARM_TEXT": "Power:Main:PLNFail",
        "LONGITUDE": 107.49679,
        "LATITUDE": -6.76425,
        "SITECLASS": "BRONZE",
        "prime_status": "NO",
        "bcp": "NO",
        "mbp_access": "YES"
    },
    {
        "SITEID": "BDG571",
        "sitename": "PANGHEOTAN",
        "dur": "1:3:1",
        "ALARM_TEXT": "Power:Main:PLNFail",
        "LONGITUDE": 107.49679,
        "LATITUDE": -6.76425,
        "SITECLASS": "BRONZE",
        "prime_status": "NO",
        "bcp": "NO",
        "mbp_access": "YES"
    },
    {
        "SITEID": "BDG788",
        "sitename": "WANGNJAYABDG",
        "dur": "1:1:36",
        "ALARM_TEXT": "Power:Main:PLNFail",
        "LONGITUDE": 107.486,
        "LATITUDE": -6.73836,
        "SITECLASS": "BRONZE",
        "prime_status": "NO",
        "bcp": "NO",
        "mbp_access": "YES"
    },
    {
        "SITEID": "BDG788",
        "sitename": "WANGNJAYABDG",
        "dur": "1:2:59",
        "ALARM_TEXT": "Power:Main:PLNFail",
        "LONGITUDE": 107.486,
        "LATITUDE": -6.73836,
        "SITECLASS": "BRONZE",
        "prime_status": "NO",
        "bcp": "NO",
        "mbp_access": "YES"
    },
    {
        "SITEID": "RKB656",
        "sitename": "CIGINTUNGLBK",
        "dur": "12:21:41",
        "ALARM_TEXT": "Power:Main:PLNFail",
        "LONGITUDE": 106.123,
        "LATITUDE": -6.62085,
        "SITECLASS": "BRONZE",
        "prime_status": "NO",
        "bcp": "YES",
        "mbp_access": "YES"
    },
    {
        "SITEID": "RKB656",
        "sitename": "CIGINTUNGLBK",
        "dur": "12:20:36",
        "ALARM_TEXT": "Power:Main:PLNFail",
        "LONGITUDE": 106.123,
        "LATITUDE": -6.62085,
        "SITECLASS": "BRONZE",
        "prime_status": "NO",
        "bcp": "YES",
        "mbp_access": "YES"
    },
    {
        "SITEID": "RKB656",
        "sitename": "CIGINTUNGLBK",
        "dur": "12:23:10",
        "ALARM_TEXT": "Power:Main:PLNFail",
        "LONGITUDE": 106.123,
        "LATITUDE": -6.62085,
        "SITECLASS": "BRONZE",
        "prime_status": "NO",
        "bcp": "YES",
        "mbp_access": "YES"
    },
    {
        "SITEID": "JKU987",
        "sitename": "KELAPAHYBRIDATIMURSTP",
        "dur": "3:51:18",
        "ALARM_TEXT": "Others:FalseAlarm",
        "LONGITUDE": 106.91208,
        "LATITUDE": -6.14509,
        "SITECLASS": "BRONZE",
        "prime_status": "NO",
        "bcp": "NO",
        "mbp_access": "YES"
    },
    {
        "SITEID": "JKS295",
        "sitename": "HTLCROWNE",
        "dur": "18:56:9",
        "ALARM_TEXT": "Others:Activity",
        "LONGITUDE": 106.815,
        "LATITUDE": -6.2219,
        "SITECLASS": "SILVER",
        "prime_status": "YES",
        "bcp": "NO",
        "mbp_access": "NO"
    },
    {
        "SITEID": "TNG130",
        "sitename": "JIAC1C",
        "dur": "1459:48:50",
        "ALARM_TEXT": "Others:Activity",
        "LONGITUDE": 106.65379,
        "LATITUDE": -6.13104,
        "SITECLASS": "BRONZE",
        "prime_status": "YES",
        "bcp": "NO",
        "mbp_access": "YES"
    },
    {
        "SITEID": "TNG130",
        "sitename": "JIAC1C",
        "dur": "1459:49:53",
        "ALARM_TEXT": "Others:Activity",
        "LONGITUDE": 106.65379,
        "LATITUDE": -6.13104,
        "SITECLASS": "BRONZE",
        "prime_status": "YES",
        "bcp": "NO",
        "mbp_access": "YES"
    },
    {
        "SITEID": "TNG130",
        "sitename": "JIAC1C",
        "dur": "1459:50:28",
        "ALARM_TEXT": "Others:Activity",
        "LONGITUDE": 106.65379,
        "LATITUDE": -6.13104,
        "SITECLASS": "BRONZE",
        "prime_status": "YES",
        "bcp": "NO",
        "mbp_access": "YES"
    },
    {
        "SITEID": "JKS594",
        "sitename": "MENARASATRIO",
        "dur": "48:41:41",
        "ALARM_TEXT": "NewSite",
        "LONGITUDE": 106.81848,
        "LATITUDE": -6.21665,
        "SITECLASS": "SILVER",
        "prime_status": "YES",
        "bcp": "NO",
        "mbp_access": "NO"
    },
    {
        "SITEID": "CBN568",
        "sitename": "BABAKANSADENGBOGOR",
        "dur": "158:12:5",
        "ALARM_TEXT": "NewSite",
        "LONGITUDE": 106.578,
        "LATITUDE": -6.56877,
        "SITECLASS": "BRONZE",
        "prime_status": "NO",
        "bcp": "NO",
        "mbp_access": "YES"
    },
    {
        "SITEID": "CBN568",
        "sitename": "BABAKANSADENGBOGOR",
        "dur": "158:10:58",
        "ALARM_TEXT": "NewSite",
        "LONGITUDE": 106.578,
        "LATITUDE": -6.56877,
        "SITECLASS": "BRONZE",
        "prime_status": "NO",
        "bcp": "NO",
        "mbp_access": "YES"
    },
    {
        "SITEID": "JKU614",
        "sitename": "JLRAYASKPURA",
        "dur": "117:36:18",
        "ALARM_TEXT": "Hardware:NonTRX",
        "LONGITUDE": 106.92542,
        "LATITUDE": -6.15131,
        "SITECLASS": "PLATINUM",
        "prime_status": "NO",
        "bcp": "NO",
        "mbp_access": "YES"
    }
]